City_ID,City,Lat,Lng,Max Temp,Humidity,Cloudiness,Wind Speed,Country,Date
0,agara,42.0376,43.8238,18.83,91,7,2.05,GE,1692736094
1,tiksi,71.6872,128.8694,3.26,92,100,2.45,RU,1692736095
2,dembi dolo,8.5333,34.8,13.98,92,99,2.46,ET,1692736095
3,edinburgh of the seven seas,-37.0676,-12.3116,13.49,88,100,9.5,SH,1692736095
4,pisco,-13.7,-76.2167,20.03,77,100,3.09,PE,1692736095
5,kiiminki,65.1314,25.7974,14.81,100,100,2.15,FI,1692736095
6,ushuaia,-54.8,-68.3,2.81,87,75,9.77,AR,1692735889
7,howrah,22.5892,88.3103,29.0,89,40,3.09,IN,1692736096
8,anloga,5.7947,0.8973,25.0,90,67,4.87,GH,1692736096
9,cadale,2.7603,46.3222,25.77,84,16,7.53,SO,1692736096
10,adamstown,-25.066,-130.1015,19.35,59,100,13.47,PN,1692736096
11,nombre de dios,23.85,-104.2333,25.75,33,48,5.02,MX,1692736096
12,ust'-barguzin,53.45,108.9833,10.08,93,61,1.02,RU,1692736097
13,yellowknife,62.456,-114.3525,18.56,79,75,3.6,CA,1692736097
14,isafjordur,66.0755,-23.124,11.77,71,79,2.2,IS,1692736097
15,lodeve,43.7167,3.3167,30.25,56,99,1.66,FR,1692736097
16,cill airne,52.05,-9.5167,13.66,90,63,0.82,IE,1692736098
17,yuzhno-kurilsk,44.0306,145.8556,20.85,99,100,4.32,RU,1692736098
18,iqaluit,63.7506,-68.5145,10.85,71,75,9.77,CA,1692736098
19,tsiombe,-25.3,45.4833,21.4,79,0,2.22,MG,1692736098
20,port mathurin,-19.6833,63.4167,23.02,77,0,8.92,MU,1692736099
21,kapuskasing,49.4169,-82.4331,23.05,53,100,4.12,CA,1692735962
22,zapala,-38.8992,-70.0544,8.48,44,1,12.22,AR,1692736099
23,margaret river,-33.95,115.0667,13.31,67,100,3.67,AU,1692736100
24,bethel,41.3712,-73.414,26.68,49,0,4.63,US,1692736081
25,alvaraes,-3.2208,-64.8042,34.93,20,11,1.91,BR,1692736100
26,paita,-5.0892,-81.1144,23.62,73,97,5.85,PE,1692736100
27,wailua homesteads,22.0669,-159.378,28.44,81,100,5.66,US,1692736101
28,happy valley-goose bay,53.3168,-60.3315,16.17,55,75,2.57,CA,1692736101
29,luderitz,-26.6481,15.1594,13.73,81,0,4.62,NA,1692736102
30,qaqortoq,60.7167,-46.0333,11.54,66,100,4.99,GL,1692736102
31,palmas de monte alto,-14.2672,-43.1619,30.45,32,98,2.4,BR,1692736103
32,belyy yar,53.6039,91.3903,12.94,94,0,0.0,RU,1692736104
33,mpulungu,-8.7623,31.1141,26.02,35,2,2.71,ZM,1692736104
34,minas de marcona,-15.2119,-75.1103,18.76,58,29,4.3,PE,1692736106
35,whitehorse,60.7161,-135.0538,19.5,55,40,2.06,CA,1692736055
36,hammerfest,70.6634,23.6821,11.25,87,20,3.6,NO,1692736109
37,west island,-12.1568,96.8225,25.99,78,75,5.14,CC,1692736111
38,waitangi,-43.9535,-176.5597,9.34,78,79,4.47,NZ,1692736111
39,sitka,57.0531,-135.33,16.94,63,40,5.14,US,1692736115
40,constantia,44.1833,28.65,25.39,70,0,2.54,RO,1692736117
41,tomatlan,19.9333,-105.25,33.85,55,80,4.75,MX,1692736117
42,yelizovo,53.1873,158.3805,14.08,100,75,2.0,RU,1692736117
43,mil'kovo,55.6078,37.7956,15.73,74,82,2.18,RU,1692736117
44,tofol,5.3248,163.0078,28.2,71,100,1.79,FM,1692736117
45,new norfolk,-42.7826,147.0587,9.4,76,100,2.84,AU,1692736118
46,egilsstadir,65.2653,-14.3948,8.95,93,100,3.09,IS,1692736118
47,mount pearl,47.5166,-52.7813,18.03,96,100,3.6,CA,1692736118
48,puerto ayora,-0.7393,-90.3518,27.98,91,96,3.13,EC,1692736118
49,cabo san lucas,22.8909,-109.9124,34.78,58,20,5.14,MX,1692736007
50,grytviken,-54.2811,-36.5092,-1.25,97,98,5.26,GS,1692736121
51,carora,10.1755,-70.0827,31.83,47,100,3.15,VE,1692736122
52,dampit,-8.2116,112.7493,18.94,92,76,2.03,ID,1692736123
53,paso del macho,18.9667,-96.7167,27.06,84,64,1.94,MX,1692736123
54,lobito,-12.3481,13.5456,20.79,92,40,2.8,AO,1692736123
55,namanyere,-7.5167,31.05,20.68,33,0,1.59,TZ,1692736124
56,easton,40.6884,-75.2207,27.66,43,0,5.14,US,1692735873
57,saldanha,-33.0117,17.9442,14.2,91,98,8.16,ZA,1692736124
58,hamilton,39.1834,-84.5333,33.3,48,0,3.6,US,1692735997
59,walvis bay,-22.9575,14.5053,12.53,76,5,2.57,NA,1692736124
60,vilyuchinsk,52.9306,158.4028,14.15,81,100,2.8,RU,1692736124
61,port-aux-francais,-49.35,70.2167,1.22,71,84,5.72,TF,1692736125
62,north bend,43.4065,-124.2243,23.47,66,10,3.72,US,1692736125
63,vadso,70.0744,29.7487,9.49,93,75,3.09,NO,1692736125
64,porto novo,6.4965,2.6036,25.9,88,82,2.71,BJ,1692736125
65,manismata,-2.4667,111.0333,22.63,92,77,1.22,ID,1692736125
66,albany,42.6001,-73.9662,26.24,48,4,0.45,US,1692735862
67,aitape,-3.1374,142.3475,24.96,89,94,2.82,PG,1692736126
68,bilibino,68.0546,166.4372,4.42,72,96,0.48,RU,1692736126
69,ilulissat,69.2167,-51.1,14.01,47,20,1.03,GL,1692736126
70,vikulovo,56.8167,70.6107,10.57,72,98,0.73,RU,1692736126
71,lihue,21.9789,-159.3672,28.77,74,100,5.66,US,1692736126
72,pomona,34.0553,-117.7523,33.38,48,0,3.6,US,1692736041
73,pohang,36.0322,129.365,23.97,92,0,1.56,KR,1692736127
74,port douglas,-16.4833,145.4667,20.41,82,65,3.46,AU,1692736127
75,williston,48.147,-103.618,32.41,31,3,2.85,US,1692735949
76,erenhot,43.6475,111.9767,15.8,40,6,3.15,CN,1692736127
77,luninyets,52.2472,26.8047,15.89,66,80,1.7,BY,1692736127
78,port elizabeth,-33.918,25.5701,11.16,71,0,2.57,ZA,1692736010
79,gadzhiyevo,69.2551,33.3362,8.23,87,100,1.41,RU,1692736128
80,stanley,54.868,-1.6985,15.71,83,0,2.57,GB,1692736050
81,jos,9.9167,8.9,21.94,74,73,1.41,NG,1692736128
82,kloulklubed,7.0419,134.2556,25.28,78,33,4.82,PW,1692736128
83,labrador city,52.9463,-66.9114,11.95,58,75,4.12,CA,1692736128
84,nikolayevsk-on-amure,53.1406,140.73,16.3,95,100,1.12,RU,1692736128
85,katsuura,35.1333,140.3,26.53,92,39,4.29,JP,1692736129
86,acajutla,13.5928,-89.8275,29.62,70,97,2.14,SV,1692736129
87,ribeira grande,38.5167,-28.7,22.22,64,20,1.79,PT,1692736129
88,san luis de la loma,17.2706,-100.8939,30.52,70,18,2.97,MX,1692736129
89,ialibu,-6.2821,143.9935,13.37,98,96,0.32,PG,1692736129
90,topchikha,52.8192,83.1185,16.39,70,21,2.72,RU,1692736129
91,ciudad dario,12.7314,-86.124,32.34,44,89,2.68,NI,1692736130
92,kovel,51.2153,24.7087,17.1,52,34,1.07,UA,1692736130
93,maun,-19.9833,23.4167,18.98,37,2,0.51,BW,1692736130
94,vylkove,45.4021,29.586,24.66,63,19,2.26,UA,1692736130
95,noumea,-22.2763,166.4572,21.11,99,58,3.69,NC,1692735919
96,manokwari,-0.8667,134.0833,25.58,78,100,1.9,ID,1692736130
97,punta arenas,-53.15,-70.9167,3.35,71,91,7.29,CL,1692736131
98,timmins,48.4669,-81.3331,22.9,43,100,2.57,CA,1692736131
99,tongouson,5.0214,120.1328,28.18,72,100,2.34,PH,1692736131
100,tara,56.8944,74.371,11.21,89,88,1.37,RU,1692736131
101,sorong,-0.8833,131.25,24.68,92,100,3.41,ID,1692736131
102,gizo,-8.103,156.8419,26.64,82,74,4.55,SB,1692736131
103,boguchany,58.3814,97.4531,14.73,70,90,0.75,RU,1692736132
104,blackmans bay,-43.0167,147.3167,8.74,74,100,3.49,AU,1692736132
105,jinja,0.439,33.2032,21.73,73,89,1.97,UG,1692736132
106,greenville,35.6127,-77.3663,33.97,54,40,4.12,US,1692736132
107,la'ie,21.6477,-157.9253,30.98,72,35,3.13,US,1692736132
108,grenada,37.1882,-3.6067,31.2,33,0,2.06,ES,1692735998
109,sinabang,2.4803,96.3801,26.34,84,81,2.45,ID,1692736133
110,puerto natales,-51.7236,-72.4875,3.51,85,100,3.34,CL,1692736133
111,humberto de campos,-2.5983,-43.4611,28.47,64,86,5.11,BR,1692736133
112,hawaiian paradise park,19.5933,-154.9731,26.69,92,75,0.0,US,1692736133
113,ust-nera,64.5667,143.2,6.15,98,100,2.41,RU,1692736134
114,taroa,8.7058,171.2275,27.85,79,94,7.21,MH,1692736134
115,avarua,-21.2078,-159.775,25.03,65,40,3.6,CK,1692736134
116,arno,60.1167,18.6333,16.55,91,73,1.61,SE,1692736134
117,khanpur,28.6453,70.6567,33.82,42,75,9.32,PK,1692736067
118,bom jardim,-7.7958,-35.5872,24.92,65,32,5.23,BR,1692736134
119,tralee,52.2704,-9.7026,13.45,88,86,1.66,IE,1692736135
120,nemuro,43.3236,145.575,19.8,100,100,5.23,JP,1692736135
121,brokopondo,4.75,-55.1667,30.85,58,85,1.66,SR,1692736135
122,kuanda,56.3161,116.0806,11.66,81,46,0.83,RU,1692736135
123,west fargo,46.875,-96.9004,31.03,66,75,3.6,US,1692736135
124,college,64.8569,-147.8028,16.18,79,100,2.57,US,1692736135
125,kamien pomorski,53.9685,14.7726,21.09,64,4,0.75,PL,1692736136
126,olinda,-8.0089,-34.8553,26.85,74,40,3.6,BR,1692736136
127,salon,26.0333,81.45,26.06,95,100,2.4,IN,1692736136
128,mont-laurier,46.5501,-75.4993,22.79,39,100,3.16,CA,1692736136
129,limon,10.0,-83.0333,28.94,84,75,0.0,CR,1692736136
130,dryden,49.7833,-92.7503,20.16,73,100,4.63,CA,1692736136
131,mount gambier,-37.8333,140.7667,9.56,92,100,3.3,AU,1692736137
132,gannan,47.9147,123.5031,12.53,92,0,3.53,CN,1692736137
133,rongelap,11.1635,166.8941,28.7,76,47,6.41,MH,1692736137
134,laojunmiao,39.8333,97.7333,16.8,32,46,0.54,CN,1692736137
135,lyneham,51.5167,-1.9667,17.75,84,44,2.85,GB,1692736137
136,georgetown,5.4112,100.3354,27.96,89,20,2.06,MY,1692735967
137,pimentel,-6.8367,-79.9342,24.16,69,100,6.69,PE,1692736138
138,holualoa,19.6228,-155.9522,28.77,72,0,3.6,US,1692735945
139,klaksvik,62.2266,-6.589,12.51,100,100,2.42,FO,1692736139
140,srivardhan,18.0333,73.0167,25.9,84,85,1.03,IN,1692736139
141,gebeit,21.0667,36.3167,29.73,39,100,2.02,SD,1692736139
142,vredendal,-31.6683,18.5012,13.64,79,83,5.63,ZA,1692736139
143,namibe,-15.1961,12.1522,17.52,95,43,3.84,AO,1692736140
144,hiratacho,35.4333,132.8167,27.01,87,6,1.9,JP,1692736140
145,commentry,46.2921,2.7416,27.04,66,14,1.17,FR,1692736140
146,aasiaat,68.7098,-52.8699,5.83,77,13,3.63,GL,1692736140
147,dipayal,29.2608,80.94,25.43,99,100,1.56,NP,1692736140
148,mahajanga,-15.7167,46.3167,22.01,83,20,1.03,MG,1692735978
149,grande prairie,55.1667,-118.8027,17.1,77,100,2.06,CA,1692736141
150,devonport,-41.1667,146.35,9.64,76,97,3.79,AU,1692736141
151,howard springs,-12.497,131.047,21.57,78,91,2.33,AU,1692736141
152,hithadhoo,-0.6,73.0833,27.94,74,98,5.95,MV,1692736141
153,afaahiti,-17.75,-149.2833,25.93,63,23,3.39,PF,1692736141
154,wynyard,-41.0,145.7167,9.52,83,98,2.9,AU,1692736142
155,san sebastian de la gomera,28.0916,-17.1133,28.2,61,0,0.51,ES,1692736142
156,jabor,5.921,169.6434,28.63,73,90,3.66,MH,1692736142
157,alofi,-19.0595,-169.9187,21.94,94,100,4.12,NU,1692736142
158,kone,-21.0595,164.8658,17.27,84,8,1.93,NC,1692736143
159,mandera,3.9366,41.867,27.71,60,20,10.86,KE,1692736143
160,st. john's,47.5649,-52.7093,18.49,96,100,3.6,CA,1692735968
161,goba,7.0167,39.9833,11.37,89,90,1.09,ET,1692736143
162,paysandu,-32.3214,-58.0756,18.11,71,76,5.64,UY,1692735986
163,santa terezinha,-29.9002,-50.0904,27.03,55,0,4.93,BR,1692736143
164,valley city,46.9233,-98.0032,21.29,100,75,2.57,US,1692735902
165,east london,-33.0153,27.9116,19.01,45,30,2.74,ZA,1692736144
166,crane,31.3974,-102.3501,34.03,28,100,4.1,US,1692736144
167,nuuk,64.1835,-51.7216,11.34,82,100,3.6,GL,1692736144
168,badger,64.8,-147.5333,16.14,76,100,2.57,US,1692736144
169,vitali,7.3711,122.2886,25.02,85,67,0.19,PH,1692736145
170,aykhal,66.0,111.5,0.76,86,5,1.27,RU,1692736145
171,zeya,53.75,127.2667,13.3,80,100,2.62,RU,1692736145
172,weno,7.4515,151.8468,25.97,100,100,0.0,FM,1692736145
173,arraial do cabo,-22.9661,-42.0278,24.98,73,0,7.2,BR,1692736145
174,longyearbyen,78.2186,15.6401,5.91,93,75,4.12,SJ,1692736146
175,susuman,62.7833,148.1667,2.84,99,100,1.57,RU,1692736146
176,olonkinbyen,70.9221,-8.7187,5.72,93,81,2.3,SJ,1692736146
177,dadukou,26.5479,101.7054,21.06,94,100,0.45,CN,1692736146
178,palmer,42.1584,-72.3287,27.04,43,40,7.72,US,1692736146
179,invercargill,-46.4,168.35,6.68,88,100,0.89,NZ,1692736147
180,yamoussoukro,6.8206,-5.2767,25.94,94,20,2.06,CI,1692736147
181,harstad,68.799,16.5293,13.23,96,100,3.13,NO,1692736147
182,bintulu,3.1667,113.0333,25.23,94,20,1.54,MY,1692736147
183,dudinka,69.4058,86.1778,10.9,92,72,3.25,RU,1692736148
184,inhambane,-23.865,35.3833,21.88,90,0,6.71,MZ,1692736148
185,papatowai,-46.5619,169.4708,7.67,72,88,2.35,NZ,1692736148
186,shubarshi,48.5872,57.1869,23.71,47,73,3.29,KZ,1692736148
187,grand falls-windsor,48.9332,-55.6649,19.01,73,100,1.81,CA,1692736148
188,lata,40.1629,-8.3327,25.03,50,6,1.45,PT,1692736148
189,lebu,-37.6167,-73.65,10.74,81,31,4.47,CL,1692736149
190,codrington,-38.2667,141.9667,9.07,83,100,4.5,AU,1692736149
191,vila franca do campo,37.7167,-25.4333,21.23,67,46,4.57,PT,1692736149
192,scarborough,54.2797,-0.4044,17.59,76,0,0.89,GB,1692736149
193,salalah,17.0151,54.0924,26.05,94,75,1.54,OM,1692736149
194,galliano,29.4422,-90.2992,35.0,55,40,5.14,US,1692736149
195,timiryazevskoye,56.49,84.8769,14.92,92,56,2.24,RU,1692736150
196,kudahuvadhoo,2.6708,72.8944,28.32,70,76,5.62,MV,1692736150
197,muisne,0.6,-80.0333,25.25,83,96,5.49,EC,1692736150
198,iskateley,67.6803,53.1512,8.35,85,99,5.27,RU,1692736150
199,rio grande,-32.035,-52.0986,24.06,76,37,6.4,BR,1692736144
200,yaransk,57.3033,47.8861,10.51,88,92,2.59,RU,1692736151
201,rio brilhante,-21.8019,-54.5464,33.6,32,57,3.42,BR,1692736151
202,praia da vitoria,38.7333,-27.0667,22.64,73,40,5.11,PT,1692736151
203,keflavik,64.0049,-22.5624,15.95,76,0,6.17,IS,1692736151
204,ixtapa,20.7,-105.2,32.9,74,40,3.6,MX,1692736151
205,keshod,21.3,70.25,26.18,83,100,4.41,IN,1692736152
206,villamontes,-21.25,-63.5,42.63,7,51,2.38,BO,1692736152
207,illizi,26.4833,8.4667,33.89,18,61,7.63,DZ,1692736152
208,udachny,66.4167,112.4,3.03,86,6,0.99,RU,1692736152
209,taoudenni,22.6783,-3.9836,39.01,16,100,5.01,ML,1692736152
210,port-vila,-17.7338,168.3219,20.78,88,100,1.03,VU,1692736153
211,colesberg,-30.72,25.0972,10.91,33,4,4.39,ZA,1692736153
212,bechar,31.6167,-2.2167,36.18,11,20,1.54,DZ,1692735980
213,boende,-0.2167,20.8667,23.65,89,27,1.06,CD,1692736153
214,chuguyevka,44.1653,133.8633,20.94,97,85,1.99,RU,1692736153
215,spring creek,40.7266,-115.5859,24.9,28,3,4.95,US,1692736153
216,hotan,37.0997,79.9269,27.0,19,74,2.06,CN,1692736154
217,batang,-6.4846,110.7083,24.02,78,14,2.89,ID,1692736154
218,frontera,26.9333,-101.45,22.78,74,100,1.18,MX,1692736154
219,klyuchi,52.2667,79.1667,20.07,64,59,3.0,RU,1692736154
220,opuwo,-18.0607,13.84,20.22,18,8,2.24,NA,1692736154
221,byron bay,-28.65,153.6167,13.17,89,6,5.55,AU,1692736155
222,ndola,-12.9587,28.6366,19.6,31,0,2.32,ZM,1692736155
223,prince rupert,54.3161,-130.3201,14.05,94,100,3.09,CA,1692736155
224,hermanus,-34.4187,19.2345,12.11,88,100,9.59,ZA,1692736059
225,el calafate,-50.3408,-72.2768,3.42,84,100,1.26,AR,1692736155
226,karratha,-20.7377,116.8463,20.68,69,0,3.82,AU,1692736155
227,hasaki,35.7333,140.8333,27.39,89,0,5.2,JP,1692736156
228,talnakh,69.4865,88.3972,10.67,95,61,2.71,RU,1692736156
229,eyl,7.9803,49.8164,25.98,84,6,10.21,SO,1692736156
230,aleksandrovsk-sakhalinskiy,50.8975,142.1561,17.39,99,100,0.47,RU,1692736156
231,troitskiy,57.0603,63.7481,10.55,63,99,1.68,RU,1692736156
232,petropavlovsk-kamchatsky,53.0452,158.6483,13.33,100,75,2.0,RU,1692736061
233,yayva,59.3303,57.2641,6.77,93,84,1.52,RU,1692736157
234,barabinsk,55.3571,78.357,13.6,95,70,3.26,RU,1692736157
235,kirensk,57.7853,108.1119,11.21,97,48,0.98,RU,1692736157
236,homer,59.6425,-151.5483,17.09,79,0,2.06,US,1692736157
237,ancud,-41.8697,-73.8203,8.01,73,100,6.23,CL,1692736157
238,bredasdorp,-34.5322,20.0403,12.03,91,100,7.58,ZA,1692736158
239,undurkhaan,47.3194,110.6556,7.65,84,93,1.45,MN,1692736158
240,ontario,34.0633,-117.6509,33.09,46,20,5.14,US,1692736158
241,embi,48.8264,58.1442,23.69,45,91,4.04,KZ,1692736158
242,burlington,39.8835,-74.6413,27.77,50,0,5.14,US,1692736158
243,coari,-4.085,-63.1414,38.48,21,84,1.26,BR,1692736159
244,dobryanka,58.4619,56.4165,7.24,91,50,1.49,RU,1692736159
245,miandrivazo,-19.5167,45.4667,26.56,40,91,1.84,MG,1692736159
246,hobyo,5.3505,48.5268,25.71,86,2,10.26,SO,1692736159
247,bikenibeu village,1.3673,173.1241,29.98,74,40,2.06,KI,1692736160
248,jalapa,19.5333,-96.9167,21.03,89,92,1.52,MX,1692735904
249,ouani,-12.1322,44.4258,24.86,72,0,0.5,KM,1692736160
250,brookings,44.3114,-96.7984,38.19,12,0,6.48,US,1692735886
251,kourou,5.1552,-52.6478,31.03,73,23,5.51,GF,1692736160
252,whitefish,48.4111,-114.3376,26.17,66,20,1.54,US,1692736046
253,papao,-17.75,-149.55,26.82,63,0,3.89,PF,1692736161
254,vorgashor,67.5833,63.95,8.39,80,100,2.5,RU,1692736161
255,richards bay,-28.783,32.0377,18.27,91,0,1.16,ZA,1692735968
256,floro,61.5996,5.0328,16.04,94,100,4.63,NO,1692736161
257,dives-sur-mer,49.2818,-0.1013,18.43,90,4,3.48,FR,1692736161
258,korce,40.6186,20.7808,20.44,39,0,1.02,AL,1692735975
259,hit,33.6416,42.8251,38.22,13,0,4.39,IQ,1692736162
260,port saint john's,-31.6229,29.5448,19.48,62,2,2.67,ZA,1692736162
261,skowhegan,44.7651,-69.7192,25.08,45,5,4.78,US,1692736163
262,jijiga,9.35,42.8,20.54,65,92,3.69,ET,1692736163
263,colonia,50.9333,6.95,21.64,75,0,1.54,DE,1692736000
264,tura,25.5198,90.2201,22.83,98,100,3.3,IN,1692736163
265,yulinshi,38.2906,109.7494,20.39,52,100,1.24,CN,1692736163
266,santyoku,37.4406,129.1708,24.89,86,2,2.79,KR,1692736164
267,roma,43.2128,-75.4557,26.09,48,0,5.14,US,1692736164
268,mar del plata,-38.0023,-57.5575,13.94,56,0,3.6,AR,1692736164
269,shwebo,22.5667,95.7,24.85,95,100,2.95,MM,1692736164
270,thompson,55.7435,-97.8558,24.09,43,40,3.09,CA,1692736121
271,kushima,31.4583,131.2333,25.15,92,100,1.83,JP,1692736165
272,mbandaka,0.0487,18.2603,22.7,86,21,1.79,CD,1692736165
273,noosa heads,-26.3833,153.15,14.63,86,2,2.54,AU,1692736165
274,pangai,-19.8,-174.35,22.06,60,20,3.09,TO,1692736165
275,eden,36.4885,-79.7667,34.45,34,100,2.75,US,1692735882
276,kerikeri,-35.2268,173.9474,9.95,92,71,1.58,NZ,1692736165
277,bardai,11.65,7.2333,27.26,56,84,1.88,NG,1692736166
278,santa marta,11.2408,-74.199,31.61,69,75,5.14,CO,1692736002
279,saudarkrokur,65.7461,-19.6394,9.29,90,96,1.99,IS,1692736166
280,napili-honokowai,20.9708,-156.6705,30.64,66,0,7.93,US,1692736166
281,iwanai,42.9744,140.5089,23.83,98,33,2.19,JP,1692736167
282,nar'yan-mar,67.6713,53.087,8.41,85,100,5.29,RU,1692736167
283,mana,5.6592,-53.7767,28.55,75,30,6.24,GF,1692736167
284,ta`u,-14.2336,-169.5144,25.95,69,17,7.13,AS,1692736167
285,swakopmund,-22.6833,14.5333,12.47,86,5,0.89,NA,1692736168
286,sao gabriel da cachoeira,-0.1303,-67.0892,36.24,28,100,2.09,BR,1692736168
287,hellin,38.5106,-1.701,26.9,45,19,2.32,ES,1692736168
288,nova sintra,14.8667,-24.7167,25.09,73,73,0.92,CV,1692736168
289,jamestown,42.097,-79.2353,25.01,45,0,3.09,US,1692735869
290,flying fish cove,-10.4217,105.6791,23.82,83,100,5.66,CX,1692736169
291,dawei,14.0833,98.2,24.58,92,100,0.63,MM,1692736169
292,la ronge,55.1001,-105.2842,21.12,60,75,3.6,CA,1692736169
293,kavieng,-2.5744,150.7967,26.78,84,83,5.09,PG,1692736169
294,varena,54.2167,24.5667,14.89,72,79,2.29,LT,1692736169
295,morondava,-20.2833,44.2833,22.15,77,0,2.96,MG,1692736169
296,remire-montjoly,4.9167,-52.2667,31.02,66,0,4.63,GF,1692736170
297,carnarvon,-24.8667,113.6333,16.72,71,0,9.02,AU,1692736170
298,sisimiut,66.9395,-53.6735,13.42,74,85,3.41,GL,1692736170
299,shiqian,27.5225,108.2281,23.33,94,97,1.49,CN,1692736170
300,catriel,-37.8791,-67.7956,14.17,50,99,5.38,AR,1692736170
301,pagar alam,-4.0167,103.2667,18.6,87,1,1.15,ID,1692736171
302,north bay,46.3168,-79.4663,24.41,56,75,3.6,CA,1692736049
303,fortuna,40.5982,-124.1573,22.18,73,0,5.66,US,1692736171
304,weiser,44.251,-116.9693,28.11,54,17,1.34,US,1692736171
305,rudne,49.8333,23.9,18.64,67,1,1.51,UA,1692736171
306,spanish springs,39.6491,-119.7074,24.55,44,75,4.12,US,1692736171
307,san pedro,14.35,121.0167,26.57,96,40,1.54,PH,1692736172
308,charters towers,-20.1,146.2667,14.45,95,46,3.01,AU,1692736172
309,mohr,54.3528,9.7167,18.08,78,0,2.79,DE,1692736172
310,namtsy,62.7161,129.6658,4.62,86,2,2.57,RU,1692736172
311,urangan,-25.3,152.9,17.52,81,0,1.52,AU,1692736172
312,geraldton,-28.7667,114.6,6.23,93,0,3.6,AU,1692736173
313,pandan,14.0453,124.1694,26.69,81,100,2.04,PH,1692736173
314,talara,-4.5772,-81.2719,29.42,58,0,6.77,PE,1692736173
315,dakhla,23.6848,-15.958,23.01,88,20,7.72,EH,1692736173
316,caazapa,-26.15,-56.4,34.31,30,0,4.69,PY,1692736174
317,luau,-10.7073,22.2247,25.72,23,4,0.34,AO,1692736174
318,nadym,65.5333,72.5167,11.93,64,100,3.65,RU,1692736174
319,as sulayyil,20.4607,45.5779,33.14,15,0,2.95,SA,1692736073
320,island harbour,50.724,-1.2758,18.97,85,9,1.34,GB,1692736174
321,al bayda',32.7627,21.7551,23.95,40,0,2.46,LY,1692736175
322,enewetak,11.3474,162.3373,28.97,75,48,7.1,MH,1692736175
323,port lincoln,-34.7333,135.8667,12.1,72,100,3.97,AU,1692736175
324,tolanaro,-25.0319,46.9987,23.04,83,20,11.83,MG,1692736175
325,okha,53.5739,142.9478,15.42,96,100,1.35,RU,1692736176
326,al kharijah,25.4514,30.5464,31.82,22,0,3.75,EG,1692736176
327,buncrana,55.1333,-7.45,14.87,94,10,2.53,IE,1692736176
328,bengkulu,-3.8004,102.2655,23.18,93,18,2.48,ID,1692736176
329,ambatondrazaka,-17.8333,48.4167,13.72,95,8,1.22,MG,1692736176
330,uturoa,-16.7333,-151.4333,24.55,59,2,5.25,PF,1692736176
331,nargund,15.7167,75.3833,23.87,75,100,4.85,IN,1692736177
332,bikaner,28.0167,73.3,32.86,46,100,11.83,IN,1692736177
333,itaituba,-4.2761,-55.9836,30.09,58,75,5.14,BR,1692736177
334,mahanoro,-19.9,48.8,19.83,91,21,1.71,MG,1692736177
335,lycksele,64.5954,18.6735,12.93,100,75,0.0,SE,1692736177
336,saipan,15.1355,145.701,27.39,100,0,2.57,MP,1692736178
337,barnala,30.3833,75.55,29.14,78,100,5.77,IN,1692736178
338,bomdila,27.25,92.4,15.53,99,100,0.64,IN,1692736183
339,merizo village,13.2658,144.6691,28.32,93,94,2.17,GU,1692736183
340,haiku-pauwela,20.9219,-156.3051,30.01,45,20,9.77,US,1692736183
341,dalnerechensk,45.9339,133.7225,20.16,99,100,2.73,RU,1692736183
342,cuito,-12.3833,16.9333,19.47,19,0,0.49,AO,1692736184
343,timbuktu,16.7735,-3.0074,37.82,26,12,1.72,ML,1692736131
344,yigo village,13.5361,144.8886,27.63,87,0,4.12,GU,1692736184
345,pauri,30.15,78.7833,20.77,98,100,0.55,IN,1692736166
346,yueyang,29.3333,113.0919,24.49,87,0,1.2,CN,1692736097
347,stryi,49.2622,23.8561,20.05,69,11,1.61,UA,1692736184
348,salekhard,66.53,66.6019,9.61,85,99,4.41,RU,1692736185
349,gbongan,7.4667,4.35,26.89,96,100,1.46,NG,1692736185
350,atafu village,-8.5421,-172.5159,27.69,77,3,9.4,TK,1692736185
351,hell-ville,-13.4,48.2667,25.61,69,62,2.03,MG,1692736185
352,lubu,23.1742,112.2809,25.72,96,95,0.39,CN,1692736186
353,gunupur,19.0833,83.8167,27.23,89,100,0.49,IN,1692736186
354,sao borja,-28.6606,-56.0044,30.53,47,0,4.43,BR,1692736186
355,mindelo,16.8901,-24.9804,28.75,74,75,2.06,CV,1692736186
356,nabire,-3.3667,135.4833,23.58,95,100,1.66,ID,1692736186
357,zahedan,29.4963,60.8629,26.95,22,2,4.12,IR,1692736187
358,hirara,24.8,125.2833,26.92,94,20,3.6,JP,1692736187
359,nema,57.5067,50.5011,11.46,80,100,2.52,RU,1692736187
360,hastings,50.8552,0.5729,19.38,36,9,5.0,GB,1692736187
361,bowen,-20.0167,148.2333,16.2,90,21,3.09,AU,1692736187
362,campos do jordao,-22.7394,-45.5914,24.35,35,0,1.76,BR,1692736187
363,laguna,38.421,-121.4238,32.41,42,0,2.06,US,1692736038
364,polyarnyy,69.1989,33.4478,8.54,87,100,1.35,RU,1692736011
365,gashua,12.871,11.0482,32.79,33,9,3.27,NG,1692736188
366,utrik,11.2278,169.8474,28.46,74,20,6.62,MH,1692736188
367,saint-joseph,-21.3667,55.6167,21.37,82,21,6.24,RE,1692736188
368,barquisimeto,10.0739,-69.3228,31.35,45,100,6.69,VE,1692736188
369,lerwick,60.1545,-1.1494,13.0,92,100,6.62,GB,1692736189
370,buala,-8.145,159.5921,26.26,83,100,3.95,SB,1692736189
371,conceicao do araguaia,-8.2578,-49.2647,38.3,22,86,3.26,BR,1692736189
372,punta del este,-34.9667,-54.95,15.06,77,0,5.14,UY,1692736189
373,guanica,17.9716,-66.908,29.43,72,100,4.7,PR,1692736189
374,lucea,18.451,-78.1736,30.92,65,10,8.48,JM,1692736189
375,jamjamal,35.5365,44.8317,26.19,14,0,0.44,IQ,1692736139
376,kununurra,-15.7667,128.7333,12.99,76,56,1.54,AU,1692736190
377,san antonio de pale,-1.4014,5.6325,23.23,89,7,5.37,GQ,1692736190
378,savur,37.5388,40.8877,20.93,17,0,2.42,TR,1692736190
379,nuku'alofa,-21.1333,-175.2,21.19,60,40,3.6,TO,1692736190
380,ajaccio,42.0,8.9167,26.03,69,0,1.03,FR,1692736190
381,miranda do douro,41.4969,-6.2731,30.9,24,66,2.56,PT,1692736191
382,rusape,-18.5278,32.1284,15.99,25,0,2.76,ZW,1692736191
383,mirny,62.5353,113.9611,5.13,80,37,0.89,RU,1692735940
384,chibougamau,49.9168,-74.3659,18.79,42,100,5.66,CA,1692736191
385,nova vicosa,-17.8919,-39.3719,25.02,86,28,5.75,BR,1692736191
386,anadyr,64.75,177.4833,10.28,93,100,2.0,RU,1692736191
387,kamthi,21.2333,79.2,26.19,91,97,3.08,IN,1692736192
388,kodiak,57.79,-152.4072,12.73,100,75,1.54,US,1692736192
389,newman,37.3138,-121.0208,31.12,10,0,1.49,US,1692736192
390,umm kaddadah,13.6017,26.6876,31.27,40,98,4.8,SD,1692736192
391,ponta delgada,37.7333,-25.6667,21.4,64,20,3.09,PT,1692736192
392,lompoc,34.6391,-120.4579,31.5,70,20,5.14,US,1692735983
393,neryungri,56.6709,124.6491,7.49,91,40,2.37,RU,1692736193
394,kapa'a,22.0752,-159.319,29.18,81,100,5.66,US,1692736193
395,mangai,-4.05,19.5333,28.4,46,90,0.85,CD,1692736193
396,kibaya,-5.3,36.5667,17.42,66,2,3.04,TZ,1692736193
397,ormara,25.2088,64.6357,26.65,86,100,7.58,PK,1692736193
398,valparaiso,-33.0393,-71.6273,16.11,95,100,7.72,CL,1692736031
399,shunyi,40.125,116.6453,20.53,100,0,1.0,CN,1692736193
400,nadi,-17.8,177.4167,22.0,68,20,5.14,FJ,1692735968
401,malanje,-9.5402,16.341,25.8,32,36,2.48,AO,1692736194
402,eraan,9.0629,117.7016,25.34,85,99,1.16,PH,1692736194
403,borovskoy,53.8,64.15,14.45,82,98,3.46,KZ,1692736194
404,arar,30.9753,41.0381,38.01,10,40,0.0,SA,1692736194
405,nanao,37.05,136.9667,27.4,93,14,0.77,JP,1692736194
406,tanhacu,-14.0214,-41.2481,32.31,31,44,2.65,BR,1692736195
407,sinjar,36.3209,41.8754,34.45,19,0,4.67,IQ,1692736195
408,christchurch,-43.5333,172.6333,3.3,86,35,0.51,NZ,1692736032
409,champerico,14.3,-91.9167,34.3,71,100,4.02,GT,1692736195
410,tazovsky,67.4667,78.7,9.37,93,100,2.47,RU,1692736195
411,rubio,7.7013,-72.3557,31.47,56,77,4.15,VE,1692736195
412,usinsk,65.9939,57.5281,8.0,92,80,5.33,RU,1692736196
413,west bay,19.3667,-81.4167,26.04,89,40,5.66,KY,1692736196
414,sittwe,20.15,92.9,26.72,85,100,1.94,MM,1692736196
415,severo-yeniseyskiy,60.3725,93.0408,11.78,85,100,1.76,RU,1692736196
416,januaria,-15.4833,-44.3667,34.67,17,45,2.26,BR,1692736196
417,pontes e lacerda,-15.2261,-59.3353,38.52,15,12,3.5,BR,1692736196
418,santa marta de ortigueira,43.6833,-7.85,22.36,84,100,0.45,ES,1692736197
419,itoman,26.1247,127.6694,27.43,87,20,1.03,JP,1692736197
420,nosy varika,-20.5833,48.5333,20.74,87,49,2.29,MG,1692736197
421,cuyo,10.8525,121.0086,28.05,74,100,4.44,PH,1692736197
422,sao felix do xingu,-6.6447,-51.995,31.91,42,72,0.63,BR,1692736197
423,bel ombre,-4.6167,55.4167,25.91,78,20,5.14,SC,1692736198
424,hilo,19.7297,-155.09,27.01,88,75,2.24,US,1692736198
425,varzea da palma,-17.5981,-44.7308,32.66,12,10,0.76,BR,1692736198
426,mili,6.0815,171.735,28.28,75,65,3.1,MH,1692736198
427,dali,25.7,100.1833,17.36,95,100,1.01,CN,1692736198
428,queenstown,-31.8976,26.8753,13.7,28,6,5.71,ZA,1692736198
429,al ghayzah,16.2079,52.176,26.55,88,63,4.66,YE,1692736199
430,taltal,-25.4,-70.4833,19.29,64,23,2.26,CL,1692736199
431,sabang,5.8933,95.3214,27.87,78,100,5.29,ID,1692736199
432,fort mcmurray,56.7268,-111.381,22.77,56,40,3.09,CA,1692736171
433,jogeva,58.7467,26.3939,14.94,98,100,2.82,EE,1692736199
434,kokoda,-8.8785,147.7407,22.34,96,89,0.69,PG,1692736200
435,vasa,22.6667,72.7333,28.16,73,100,3.94,IN,1692736200
436,darwin,-12.4611,130.8418,21.61,86,0,1.79,AU,1692736200
437,kayangel,8.0823,134.7173,28.05,79,10,5.05,PW,1692736201
438,vilyuysk,63.7553,121.6247,8.52,68,90,2.79,RU,1692736201
439,kyren,51.6828,102.1408,9.32,88,18,0.8,RU,1692736202
440,ath thawrah,35.8469,38.5443,30.95,38,0,5.46,SY,1692736203
441,ebon,4.582,168.6964,28.72,69,83,4.33,MH,1692736204
442,chabua,27.4825,95.1736,23.16,100,100,0.54,IN,1692736205
443,bol,13.4586,14.7147,28.21,72,7,4.0,TD,1692736205
444,rawson,-43.3002,-65.1023,12.51,30,5,10.18,AR,1692736206
445,yashkul',46.1711,45.3435,27.33,31,0,4.81,RU,1692736206
446,yanchep,-31.55,115.6833,9.6,83,14,2.41,AU,1692736207
447,berwick-upon-tweed,55.7833,-2.0,17.13,87,6,5.46,GB,1692736208
448,lebowakgomo,-24.2,29.5,19.5,19,2,2.8,ZA,1692736208
449,shache,38.4167,77.2406,27.06,19,79,3.93,CN,1692736208
450,whittlesea,-32.1759,26.8244,13.51,32,17,8.68,ZA,1692736209
451,pozarevac,44.6153,21.1825,23.39,53,1,0.91,RS,1692736209
452,horta,38.5333,-28.6333,21.8,66,20,1.79,PT,1692736209
453,akureyri,65.6835,-18.0878,11.96,58,100,2.57,IS,1692735923
454,salatiga,-7.3319,110.4928,21.33,91,25,1.68,ID,1692736209
455,midvagur,62.0511,-7.1939,12.46,100,100,2.06,FO,1692736210
456,theunissen,-28.411,26.7011,8.7,39,0,1.68,ZA,1692736210
457,san patricio,28.017,-97.5169,29.36,81,100,10.32,US,1692736210
458,gonabad,34.3529,58.6837,24.27,29,0,3.71,IR,1692736211
459,kimbe,-5.5502,150.1429,25.16,87,100,1.88,PG,1692736211
460,barrington,41.7407,-71.3087,27.22,46,75,5.66,US,1692736211
461,pacocha,-17.5833,-71.3333,19.08,77,100,5.14,PE,1692736212
462,alenquer,-1.9417,-54.7383,31.36,49,67,2.29,BR,1692736212
463,turkmenbasy,40.0222,52.9552,24.43,41,0,2.06,TM,1692736213
464,hami,42.8,93.45,26.18,16,3,5.4,CN,1692736213
465,poronaysk,49.2167,143.1167,20.7,96,99,0.41,RU,1692736213
466,andalgala,-27.5819,-66.3165,32.73,2,75,3.69,AR,1692736214
467,fort st. john,56.2499,-120.8529,19.94,60,75,2.06,CA,1692736206
468,canatlan,24.5167,-104.7833,21.54,50,91,5.24,MX,1692736214
469,selkirk,50.1436,-96.8845,21.77,74,100,1.34,CA,1692736157
470,chittaurgarh,24.8833,74.6333,24.62,85,100,5.46,IN,1692736215
471,kursk,51.7303,36.1939,17.11,93,27,4.02,RU,1692736215
472,sirte,31.2089,16.5887,27.2,73,41,3.72,LY,1692736215
473,bonthe,7.5264,-12.505,25.75,88,100,3.16,SL,1692736216
474,al bawiti,28.3492,28.8659,30.07,30,0,2.64,EG,1692735998
475,kuala belait,4.5833,114.1833,25.09,88,93,1.13,BN,1692736216
476,nieuw amsterdam,5.8833,-55.0833,35.01,46,20,2.57,SR,1692736216
477,medicine hat,50.0501,-110.6683,20.55,76,100,3.09,CA,1692736217
478,el granada,37.5027,-122.4694,31.61,69,0,4.63,US,1692736217
479,mogocha,53.7333,119.7667,7.51,87,95,2.35,RU,1692736217
480,yung shue wan,22.2333,114.1167,29.86,83,99,0.89,HK,1692736218
481,bamboo flat,11.7,92.7167,26.83,83,100,4.1,IN,1692736218
482,igrim,63.1906,64.4162,7.81,94,99,2.18,RU,1692736218
483,puerto baquerizo moreno,-0.9,-89.6,24.55,78,75,6.69,EC,1692736219
484,caibarien,22.5206,-79.4669,31.62,74,15,6.99,CU,1692736219
485,mount isa,-20.7333,139.5,15.87,29,0,5.14,AU,1692736219
486,madison heights,42.4859,-83.1052,24.8,56,0,1.54,US,1692736219
487,tarauaca,-8.1614,-70.7656,38.21,24,99,0.39,BR,1692736220
488,east ballina,-28.8667,153.5833,13.22,85,3,3.34,AU,1692736220
489,the pinery,39.4553,-104.7344,34.48,23,20,5.81,US,1692736220
490,port isabel,26.0734,-97.2086,32.05,78,100,3.6,US,1692736221
491,talagang,32.9297,72.4158,33.73,43,0,6.16,PK,1692736221
492,berbera,10.4396,45.0143,33.31,48,75,1.15,SO,1692736014
493,shimanovsk,52.0,127.7,15.43,98,100,1.33,RU,1692736222
494,portland,45.5234,-122.6762,25.05,48,75,1.54,US,1692736051
495,nagqu,31.5,92.0,4.22,75,95,0.8,CN,1692736222
496,choibalsan,48.0667,114.5,11.92,78,100,3.93,MN,1692736222
497,thunder bay,48.4001,-89.3168,17.99,72,100,6.17,CA,1692736223
498,sechura,-5.5569,-80.8222,24.74,66,92,6.04,PE,1692736223
499,acarau,-2.8856,-40.12,25.96,75,62,9.33,BR,1692736223
500,talavera,15.6167,120.9333,24.41,95,74,0.7,PH,1692736224
501,sihanoukville,10.6093,103.5296,25.97,94,40,2.06,KH,1692735967
502,ciudad bolivar,8.1222,-63.5497,36.53,34,36,3.42,VE,1692736090
503,ourem,39.6417,-8.5919,24.47,66,4,2.25,PT,1692736224
504,porto murtinho,-21.6989,-57.8825,37.41,20,6,4.57,BR,1692736224
505,benghazi,32.1167,20.0667,29.17,51,0,7.0,LY,1692735942
506,illapel,-31.6308,-71.1653,15.61,60,100,1.66,CL,1692735971
507,huarmey,-10.0681,-78.1522,22.3,75,36,4.99,PE,1692736225
508,egletons,45.4034,2.0507,26.62,71,5,1.67,FR,1692736225
509,okhotsk,59.3833,143.3,13.97,88,74,3.27,RU,1692736226
510,canto do buriti,-8.11,-42.9444,33.86,24,5,3.44,BR,1692736226
511,sao luiz gonzaga,-28.4083,-54.9608,28.0,58,0,6.07,BR,1692736057
512,oppdal,62.5943,9.6912,10.5,87,56,0.86,NO,1692736226
513,cidade velha,14.9167,-23.6167,28.26,78,75,4.12,CV,1692736226
514,al jawf,29.5,38.75,33.27,17,5,3.44,SA,1692736227
515,baraolt,46.0751,25.6003,23.2,61,10,1.32,RO,1692736227
516,hoboken,40.744,-74.0324,27.35,44,20,6.69,US,1692736227
517,manaquiri,-3.3167,-60.35,36.27,27,70,1.84,BR,1692736227
518,eastham,41.8301,-69.9739,23.11,68,2,4.02,US,1692736228
519,khandyga,62.6667,135.6,10.73,94,100,0.79,RU,1692736228
520,sydney,-33.8679,151.2073,11.88,84,40,4.63,AU,1692735938
521,posto fiscal rolim de moura,-13.0833,-62.2667,38.24,19,59,2.11,BR,1692736228
522,aleksandrovskoye,44.7142,43.0008,23.25,36,3,3.0,RU,1692736229
523,mumford,5.2618,-0.759,23.89,94,8,3.78,GH,1692736229
524,naantali,60.4674,22.0243,16.03,99,40,2.57,FI,1692736229
525,tchibanga,-2.85,11.0333,21.73,86,46,2.22,GA,1692736229
526,hoeryong,42.4428,129.7508,20.65,99,100,0.41,KP,1692736230
527,new plymouth,-39.0667,174.0833,10.45,82,5,1.26,NZ,1692736123
528,chonchi,-42.6128,-73.8092,7.56,86,100,2.59,CL,1692736230
529,tanabe,33.7333,135.3667,25.64,90,42,3.1,JP,1692736231
530,bridgewater,44.3835,-64.5155,24.5,44,5,3.6,CA,1692736231
531,luanda,-8.8368,13.2343,22.0,83,20,5.14,AO,1692736088
532,novo aripuana,-5.1206,-60.3797,37.26,24,87,1.77,BR,1692736232
533,springhill,33.006,-93.4668,38.94,24,0,3.22,US,1692736232
534,lospalos,-8.5186,127.0025,19.32,90,17,2.07,TL,1692736232
535,alice springs,-23.7,133.8833,12.9,53,0,25.48,AU,1692736233
536,dzhambeyty,50.2536,52.595,20.56,61,6,4.53,KZ,1692736233
537,ambodifotatra,-16.9833,49.85,23.65,72,2,5.31,MG,1692736233
538,sijunjung,-0.6876,100.9537,21.62,98,21,0.66,ID,1692736234
539,port augusta,-32.5,137.7667,6.69,76,0,1.73,AU,1692736234
540,talanga,14.4,-87.0833,29.3,50,100,1.57,HN,1692736234
541,nuzvid,16.7833,80.85,26.1,87,97,1.44,IN,1692736234
542,jiagedaqi,50.4167,124.1167,14.67,99,100,3.18,CN,1692736235
543,tengrela,10.4869,-6.4097,24.24,90,53,2.09,CI,1692736235
544,greeley,40.4233,-104.7091,36.84,21,0,4.12,US,1692736011
545,general acha,-37.377,-64.6043,10.4,72,100,6.82,AR,1692736236
546,santa elena de uairen,4.6167,-61.1333,25.88,58,41,3.18,VE,1692736236
547,la passe,45.5549,-0.8967,29.13,66,17,3.13,FR,1692736236
548,callao,-12.0667,-77.15,23.73,73,100,5.14,PE,1692736237
549,labytnangi,66.6572,66.4183,10.05,82,99,4.26,RU,1692736001
550,jiexiu,37.0244,111.9125,22.24,42,100,0.75,CN,1692736237
551,male,4.1748,73.5089,28.97,79,75,4.12,MV,1692736237
552,berdigestyakh,62.0989,126.6992,4.07,80,27,1.9,RU,1692736238
553,cacheu,12.2706,-16.1658,26.05,86,85,1.63,GW,1692736238
554,cradock,-32.1642,25.6192,13.51,34,51,4.91,ZA,1692736239
555,maumere,-8.6199,122.2111,23.68,75,12,0.55,ID,1692736239
556,along,28.1667,94.7667,23.76,100,100,0.61,IN,1692736239
557,sur,22.5667,59.5289,30.35,60,81,4.66,OM,1692736240
558,aljezur,37.3191,-8.8033,23.87,60,5,2.25,PT,1692736240
559,moranbah,-22.0016,148.0466,14.67,84,2,3.32,AU,1692736240
560,kos,36.8933,27.2889,25.69,76,10,1.98,GR,1692736094
561,chui,-33.6971,-53.4616,12.41,93,100,6.04,UY,1692736246
562,korla,41.7597,86.1469,27.59,20,73,3.17,CN,1692736246
563,saint-felix-de-valois,46.1668,-73.4324,24.58,56,37,1.79,CA,1692736246
564,yatou,37.15,122.3833,21.64,96,59,1.96,CN,1692736246
565,runaway bay,18.4596,-77.3357,29.86,68,9,5.65,JM,1692736247
566,essaouira,31.5125,-9.77,28.72,65,33,2.06,MA,1692736247
567,casino,-28.8667,153.05,13.09,86,41,1.57,AU,1692736247
568,berezovyy,51.6667,135.7,16.47,97,100,0.05,RU,1692736247
569,sodankyla,67.4167,26.6,10.23,78,100,1.04,FI,1692736247
570,kingston,17.997,-76.7936,32.91,72,20,4.12,JM,1692736247
571,el porvenir,13.7617,-87.3458,30.63,59,99,0.83,HN,1692736003
572,soio,-6.1349,12.3689,22.1,92,17,3.41,AO,1692736248
573,puerto madero,14.7208,-92.4215,30.11,84,75,5.14,MX,1692736248
574,three points,32.0767,-111.3137,39.2,20,12,1.55,US,1692736249
575,fredericton,45.9454,-66.6656,23.24,44,0,5.66,CA,1692736249
576,yoshkar-ola,56.6388,47.8908,12.27,90,97,2.09,RU,1692735961
577,bundaberg north,-24.8551,152.3425,13.45,99,1,0.89,AU,1692736249
578,naze,28.3667,129.4833,25.51,85,3,2.49,JP,1692736249
579,makar'yev,57.8797,43.8069,11.94,71,100,1.81,RU,1692736250
580,port alfred,-33.5906,26.891,17.75,45,59,4.44,ZA,1692736250
581,mek'ele,13.4967,39.4753,14.83,90,100,1.25,ET,1692736034
582,tongliao,43.6125,122.2653,16.76,49,0,2.19,CN,1692736086
583,lethem,3.3803,-59.7968,31.51,53,75,0.98,GY,1692736250
584,malango,-2.9627,119.9001,17.9,97,95,0.74,ID,1692736251
585,tangalle,6.024,80.7911,25.77,88,79,4.67,LK,1692736251
586,yamada,39.4667,141.95,25.91,92,4,3.41,JP,1692736251
587,guerrero negro,27.9769,-114.0611,24.44,64,7,6.79,MX,1692736251
588,international falls,48.6011,-93.411,18.41,94,100,6.17,US,1692736223
589,lazaro cardenas,17.9583,-102.2,30.59,70,3,4.49,MX,1692736119
590,kerema,-7.9631,145.7785,24.46,93,70,1.74,PG,1692736252
591,juan griego,11.0817,-63.9655,33.07,55,100,8.23,VE,1692736252
592,shibetsu,43.659,145.132,22.7,97,81,3.62,JP,1692736252
593,chiredzi,-21.05,31.6667,24.33,21,0,3.11,ZW,1692736252
594,salinopolis,-0.6136,-47.3561,27.28,76,39,6.69,BR,1692736252
595,zhaotong,27.3167,103.7167,15.0,86,92,1.19,CN,1692736253
596,cole harbour,44.6724,-63.4751,23.87,52,13,3.6,CA,1692736253
597,gaspe,48.8334,-64.4819,19.12,39,20,5.14,CA,1692736049
598,san andres,12.5847,-81.7006,30.01,79,75,3.6,CO,1692736253
599,dubbo,-32.25,148.6167,4.07,93,0,2.57,AU,1692736254
600,coquimbo,-29.9533,-71.3436,19.85,55,0,6.17,CL,1692736028
601,sulecin,52.4443,15.1168,16.05,76,13,0.67,PL,1692736254
602,dolores,-36.3132,-57.6792,10.42,74,56,3.03,AR,1692736254
603,maintirano,-18.0667,44.0167,23.3,77,1,0.45,MG,1692736255
604,pontianak,-0.0333,109.3333,24.99,94,75,1.03,ID,1692736255
605,eforie sud,44.0229,28.6494,25.45,70,0,2.13,RO,1692736255
606,phan rang-thap cham,11.5667,108.9833,25.73,79,71,1.95,VN,1692736256
607,siasi,5.5462,120.8145,27.41,79,94,2.96,PH,1692736256
608,lal bahadur nagar,17.3477,78.5576,25.66,78,75,4.12,IN,1692736086
609,ulaangom,49.9811,92.0667,14.12,61,85,0.13,MN,1692736256
610,kogalym,62.2654,74.4791,10.82,95,100,3.0,RU,1692736256
611,miyaly,48.8844,53.7836,24.7,45,8,3.63,KZ,1692736257
612,guasdualito,7.2424,-70.7324,32.98,55,20,1.03,VE,1692736257
613,cidreira,-30.1811,-50.2056,26.39,58,1,6.05,BR,1692736257
614,guatire,10.4762,-66.5427,31.78,76,100,1.71,VE,1692736257
615,holyhead,53.3062,-4.6321,17.21,88,100,6.17,GB,1692736257
